[
    {
        "county": "Anderson",
        "name": "Confederate Monument in Lawrenceburg",
        "type": "Confederate",
        "active": "Yes",
        "year_built": 1894,
        "city": "Lawrenceburg",
        "lat": 38.035435,
        "lng": -84.895527,
        "notes": "https://npgallery.nps.gov/AssetDetail/7329acd4-7a2e-4ab4-b264-1f9c5be817b7"
    },
    {
        "county": "Barren",
        "name": "Confederate Monument in Glasgow",
        "type": "Confederate",
        "active": "Yes",
        "year_built": 1905,
        "city": "Glasgow",
        "lat": 36.995518,
        "lng": -85.912443,
        "notes": "https://npgallery.nps.gov/AssetDetail/30a746f0-6325-4ce1-aa49-b86d194ca82f"
    },
    {
        "county": "Bath",
        "name": "Confederate Monument in Owingsville",
        "type": "Confederate",
        "active": "Yes",
        "year_built": 1907,
        "city": "Owingsville",
        "lat": 38.14222222,
        "lng": -83.75944444,
        "notes": "https://npgallery.nps.gov/AssetDetail/8456074c-8ec1-4546-a9ed-d9eb95200144"
    },
    {
        "county": "Bourbon",
        "name": "Bourbon County Confederate Monument",
        "type": "Confederate",
        "active": "Yes",
        "year_built": 1887,
        "city": "Paris",
        "lat": 38.20277778,
        "lng": -84.26527778,
        "notes": "https://npgallery.nps.gov/AssetDetail/a3a978b6-5afd-4c6c-b8d7-13a7400a3190"
    },
    {
        "county": "Boyle",
        "name": "Confederate Monument in Danville",
        "type": "Confederate",
        "active": "Yes",
        "year_built": 1910,
        "city": "Danville",
        "lat": 37.645932,
        "lng": -84.778478,
        "notes": "https://npgallery.nps.gov/AssetDetail/eca78fe7-249e-4cd5-a4de-e515a2ec59f7"
    },
    {
        "county": "Boyle",
        "name": "Confederate Monument in Perryville",
        "type": "Confederate",
        "active": "Yes",
        "year_built": 1902,
        "city": "Perryville",
        "lat": 37.674816,
        "lng": -84.970725,
        "notes": "https://npgallery.nps.gov/AssetDetail/ce5f3fdb-b34a-44fc-ae98-017e0bf4c646"
    },
    {
        "county": "Boyle",
        "name": "Union Monument in Perryville",
        "type": "Union",
        "active": "Yes",
        "year_built": 1928,
        "city": "Perryville",
        "lat": 37.675207,
        "lng": -84.971021,
        "notes": "https://npgallery.nps.gov/AssetDetail/e906d663-198b-4f29-ac45-9e9c2f72488f"
    },
    {
        "county": "Boyle",
        "name": "Unknown Confederate Dead Monument in Perryville",
        "type": "Confederate",
        "active": "Yes",
        "year_built": 1928,
        "city": "Perryville",
        "lat": 37.67895,
        "lng": -84.954687,
        "notes": "https://npgallery.nps.gov/AssetDetail/f75a3a22-5e40-4747-a5f6-790a70bbe2cb"
    },
    {
        "county": "Bracken",
        "name": "Confederate Monument in Augusta",
        "type": "Confederate",
        "active": "Yes",
        "year_built": 1903,
        "city": "Augusta",
        "lat": 38.769276,
        "lng": -84.011886,
        "notes": "https://npgallery.nps.gov/AssetDetail/947648ac-f144-4540-8f4e-fd05846caf08"
    },
    {
        "county": "Butler",
        "name": "Confederate-Union Veterans' Monument in Morgantown",
        "type": "Other",
        "active": "Yes",
        "year_built": 1907,
        "city": "Morgantown",
        "lat": 37.225507,
        "lng": -86.683213,
        "notes": "https://npgallery.nps.gov/AssetDetail/9d143881-93d7-41fe-b183-f9f3c51bdc9d"
    },
    {
        "county": "Caldwell",
        "name": "Confederate Soldier Monument in Caldwell",
        "type": "Confederate",
        "active": "Yes",
        "year_built": 1912,
        "city": "Princeton",
        "lat": 37.108829,
        "lng": -87.88187,
        "notes": "https://npgallery.nps.gov/AssetDetail/8aee925c-08c1-4dc8-9137-5e1cd74addf0"
    },
    {
        "county": "Calloway",
        "name": "Confederate Monument in Murray",
        "type": "Confederate",
        "active": "Yes",
        "year_built": 1917,
        "city": "Murray",
        "lat": 36.610404,
        "lng": -88.302299,
        "notes": "https://npgallery.nps.gov/AssetDetail/6e827533-8f6e-4469-a7f5-5dddf2a80a37"
    },
    {
        "county": "Christian",
        "name": "Confederate Memorial Fountain in Hopkinsville",
        "type": "Confederate",
        "active": "Yes",
        "year_built": 1911,
        "city": "Hopkinsville",
        "lat": 36.86699,
        "lng": -87.488159,
        "notes": "https://npgallery.nps.gov/AssetDetail/621bc3a2-077d-4a0b-b838-6c9df33bec02"
    },
    {
        "county": "Christian",
        "name": "Latham Confederate Monument",
        "type": "Confederate",
        "active": "Yes",
        "year_built": 1887,
        "city": "Hopkinsville",
        "lat": 36.874486,
        "lng": -87.480791,
        "notes": "https://npgallery.nps.gov/AssetDetail/4b11852d-cc1c-4d52-862e-81886b36fd80"
    },
    {
        "county": "Daviess",
        "name": "Confederate Monument in Owensboro",
        "type": "Confederate",
        "active": "Yes",
        "year_built": 1900,
        "city": "Owensboro",
        "lat": 37.773846,
        "lng": -87.11321,
        "notes": "https://npgallery.nps.gov/AssetDetail/771f88cc-4767-48e3-b71b-91c955042fc4"
    },
    {
        "county": "Daviess",
        "name": "Thompson and Powell Martyrs Monument",
        "type": "Confederate",
        "active": "Yes",
        "year_built": 1864,
        "city": "St. Joseph",
        "lat": 37.695716,
        "lng": -87.325189,
        "notes": "https://npgallery.nps.gov/AssetDetail/2589dc6b-3b7d-45e7-be91-08875b47b73a"
    },
    {
        "county": "Fayette",
        "name": "Confederate Soldier Monument in Lexington",
        "type": "Confederate",
        "active": "Yes",
        "year_built": 1893,
        "city": "Lexington",
        "lat": 38.059694,
        "lng": -84.509238,
        "notes": "https://npgallery.nps.gov/AssetDetail/e811ccc4-6b90-4418-9f8d-36e961e46b36"
    },
    {
        "county": "Fayette",
        "name": "John C. Breckinridge Memorial",
        "type": "Confederate",
        "active": "No",
        "year_built": 1887,
        "city": "Lexington",
        "lat": 38.047808,
        "lng": -84.498432,
        "notes": "https://npgallery.nps.gov/AssetDetail/69398159-bec1-4ae7-9c95-fbb514166677"
    },
    {
        "county": "Fayette",
        "name": "John Hunt Morgan Memorial",
        "type": "Confederate",
        "active": "No",
        "year_built": 1911,
        "city": "Lexington",
        "lat": 38.047456,
        "lng": -84.49782,
        "notes": "https://npgallery.nps.gov/AssetDetail/02061f36-c177-4b1e-b924-6126cd13dde1"
    },
    {
        "county": "Fayette",
        "name": "Ladies' Confederate Memorial",
        "type": "Confederate",
        "active": "Yes",
        "year_built": 1874,
        "city": "Lexington",
        "lat": 38.062535,
        "lng": -84.51121,
        "notes": "https://npgallery.nps.gov/AssetDetail/63ec32a0-6d9f-47de-8013-f3eab5ae9bd9"
    },
    {
        "county": "Franklin",
        "name": "Colored Soldiers Monument in Frankfort",
        "type": "Other",
        "active": "Yes",
        "year_built": 1924,
        "city": "Frankfort",
        "lat": 38.205177,
        "lng": -84.837633,
        "notes": "https://npgallery.nps.gov/AssetDetail/d59ace31-d4a6-4847-85b5-c08ced4dcfa5"
    },
    {
        "county": "Franklin",
        "name": "Confederate Monument in Frankfort",
        "type": "Confederate",
        "active": "Yes",
        "year_built": 1892,
        "city": "Frankfort",
        "lat": 38.192731,
        "lng": -84.864816,
        "notes": "https://npgallery.nps.gov/AssetDetail/b6efcf33-bdd9-4692-b966-12d27397633a"
    },
    {
        "county": "Fulton",
        "name": "Confederate Memorial in Fulton",
        "type": "Confederate",
        "active": "Yes",
        "year_built": 1902,
        "city": "Fulton",
        "lat": 36.512515,
        "lng": -88.880774,
        "notes": "https://npgallery.nps.gov/AssetDetail/16bd81c1-e13a-43b5-9a94-9884adc41be7"
    },
    {
        "county": "Fulton",
        "name": "Confederate Memorial Gateway in Hickman",
        "type": "Confederate",
        "active": "Yes",
        "year_built": 1913,
        "city": "Hickman",
        "lat": 36.557545,
        "lng": -89.178116,
        "notes": "https://npgallery.nps.gov/AssetDetail/30ff870e-b8e1-4c56-b5f1-447063b6d0c0"
    },
    {
        "county": "Graves",
        "name": "Camp Beauregard Memorial in Water Valley",
        "type": "Confederate",
        "active": "Yes",
        "year_built": 1909,
        "city": "Water Valley",
        "lat": 36.57489,
        "lng": -88.792646,
        "notes": "https://npgallery.nps.gov/AssetDetail/2796d2c6-eb7e-4ffb-b7a5-c99f0da7dfa8"
    },
    {
        "county": "Graves",
        "name": "Confederate Memorial Gates in Mayfield",
        "type": "Confederate",
        "active": "Yes",
        "year_built": 1924,
        "city": "Mayfield",
        "lat": 36.748778,
        "lng": -88.636575,
        "notes": "https://npgallery.nps.gov/AssetDetail/f9a0a45b-1722-4f07-9a2b-ce35a4e6cb28"
    },
    {
        "county": "Graves",
        "name": "Confederate Memorial in Mayfield",
        "type": "Confederate",
        "active": "Yes",
        "year_built": 1920,
        "city": "Mayfield",
        "lat": 36.741412,
        "lng": -88.635192,
        "notes": "https://npgallery.nps.gov/AssetDetail/32445edb-2290-48b8-b897-66e35e0362be"
    },
    {
        "county": "Harrison",
        "name": "Confederate Monument in Cynthiana",
        "type": "Confederate",
        "active": "Yes",
        "year_built": 1869,
        "city": "Cynthiana",
        "lat": 36.741412,
        "lng": -88.635192,
        "notes": "https://npgallery.nps.gov/AssetDetail/6002c0bf-9a71-4d19-83cd-f8657c5735f6"
    },
    {
        "county": "Hart",
        "name": "Colonel Robert A. Smith Monument",
        "type": "Confederate",
        "active": "Yes",
        "year_built": 1884,
        "city": "Munfordville",
        "lat": 37.257546,
        "lng": -85.895651,
        "notes": "https://npgallery.nps.gov/AssetDetail/a65da930-61c0-4be3-9159-2efbd68ea714"
    },
    {
        "county": "Hart",
        "name": "Unknown Confederate Soldier Monument in Horse Cave",
        "type": "Confederate",
        "active": "Yes",
        "year_built": 1934,
        "city": "Horse Cave",
        "lat": 37.193781,
        "lng": -85.926889,
        "notes": "https://npgallery.nps.gov/AssetDetail/ecbf1584-2da4-47af-9530-74a0b4537303"
    },
    {
        "county": "Henry",
        "name": "Confederate Soldiers Martyrs Monument in Eminence",
        "type": "Confederate",
        "active": "Yes",
        "year_built": 1870,
        "city": "Eminence",
        "lat": 38.359742,
        "lng": -85.180553,
        "notes": "https://npgallery.nps.gov/AssetDetail/77a06807-c6dc-4e28-b64f-f2009ec46a04"
    },
    {
        "county": "Jefferson",
        "name": "Adolph Bloedner Monument",
        "type": "Union",
        "active": "Yes",
        "year_built": 1862,
        "city": "Louisville",
        "lat": 38.248273,
        "lng": -85.721952,
        "notes": "https://npgallery.nps.gov/AssetDetail/c2ab7a45-18f8-4dd3-9c17-7a9969f5c489"
    },
    {
        "county": "Jefferson",
        "name": "Confederate Martyrs Monument in Jeffersontown",
        "type": "Confederate",
        "active": "Yes",
        "year_built": 1904,
        "city": "Jeffersontown",
        "lat": 38.190476,
        "lng": -85.569204,
        "notes": "https://npgallery.nps.gov/AssetDetail/14844390-73f1-4396-88cc-d194070659b8"
    },
    {
        "county": "Jefferson",
        "name": "Confederate Monument in Louisville",
        "type": "Confederate",
        "active": "Yes",
        "year_built": 1895,
        "city": "Louisville",
        "lat": 38.004948,
        "lng": -86.169513,
        "notes": "https://npgallery.nps.gov/AssetDetail/178d042d-8408-431d-9928-3152c634b1c2"
    },
    {
        "county": "Jefferson",
        "name": "Confederate Monument in Louisville (Moved to Brandenburg)",
        "type": "Confederate",
        "active": "No",
        "year_built": 1895,
        "city": "Louisville",
        "lat": 38.214872,
        "lng": -85.757462,
        "notes": "https://npgallery.nps.gov/AssetDetail/178d042d-8408-431d-9928-3152c634b1c2"
    },
    {
        "county": "Jefferson",
        "name": "John B. Castleman Monument",
        "type": "Confederate",
        "active": "Yes",
        "year_built": 1913,
        "city": "Louisville",
        "lat": 38.235276,
        "lng": -85.712463,
        "notes": "https://npgallery.nps.gov/AssetDetail/a54adc3d-2d4d-4100-8dd7-01808248956f"
    },
    {
        "county": "Jefferson",
        "name": "Union Monument in Louisville",
        "type": "Union",
        "active": "Yes",
        "year_built": 1914,
        "city": "Louisville",
        "lat": 38.244439,
        "lng": -85.719102,
        "notes": "https://npgallery.nps.gov/AssetDetail/387e342d-c07a-4a96-b354-be79c2f6b6ab"
    },
    {
        "county": "Jessamine",
        "name": "Confederate Memorial in Nicholasville",
        "type": "Confederate",
        "active": "Yes",
        "year_built": 1896,
        "city": "Nicholasville",
        "lat": 37.880557,
        "lng": -84.57316,
        "notes": "https://npgallery.nps.gov/AssetDetail/27f0c3e5-ad81-471c-b080-914b7282301b"
    },
    {
        "county": "Kenton",
        "name": "GAR Monument in Covington",
        "type": "Union",
        "active": "Yes",
        "year_built": 1929,
        "city": "Covington",
        "lat": 39.073107,
        "lng": -84.514713,
        "notes": "https://npgallery.nps.gov/AssetDetail/5de77323-4f0d-40ef-8c5d-2f3dab87d138"
    },
    {
        "county": "Kenton",
        "name": "Veteran's Monument in Covington",
        "type": "Union",
        "active": "Yes",
        "year_built": 1933,
        "city": "Covington",
        "lat": 39.074988,
        "lng": -84.516144,
        "notes": "https://npgallery.nps.gov/AssetDetail/36086d74-0213-490b-90d0-33fc4ef029c8"
    },
    {
        "county": "Lewis",
        "name": "Union Monument in Vanceburg",
        "type": "Union",
        "active": "Yes",
        "year_built": 1884,
        "city": "Vanceburg",
        "lat": 38.60064,
        "lng": -83.316165,
        "notes": "https://npgallery.nps.gov/AssetDetail/3c27fbfb-d178-45a8-8f54-993f5587f184"
    },
    {
        "county": "Lincoln",
        "name": "Confederate Monument at Crab Orchard",
        "type": "Confederate",
        "active": "Yes",
        "year_built": 1872,
        "city": "Crab Orchard",
        "lat": 37.464393,
        "lng": -84.501848,
        "notes": "https://npgallery.nps.gov/AssetDetail/87972030-b4f9-4b71-9bdc-9ff2521bb01d"
    },
    {
        "county": "Logan",
        "name": "Confederate Monument in Russellville",
        "type": "Confederate",
        "active": "Yes",
        "year_built": 1910,
        "city": "Russellville",
        "lat": 36.845483,
        "lng": -86.887792,
        "notes": "https://npgallery.nps.gov/AssetDetail/506f5aee-fd65-4e2b-99a4-9bad543a5302"
    },
    {
        "county": "Marion",
        "name": "Captain Andrew Offutt Monument",
        "type": "Union",
        "active": "Yes",
        "year_built": 1921,
        "city": "Lebanon",
        "lat": 37.573923,
        "lng": -85.241088,
        "notes": "https://npgallery.nps.gov/AssetDetail/92c49f71-db0f-4099-8074-f443fd342374"
    },
    {
        "county": "McCracken",
        "name": "Confederate Monument in Paducah",
        "type": "Confederate",
        "active": "Yes",
        "year_built": 1907,
        "city": "Paducah",
        "lat": 37.086186,
        "lng": -88.623332,
        "notes": "https://npgallery.nps.gov/AssetDetail/d885796c-8e01-47d5-842e-3b0a9f706d88"
    },
    {
        "county": "McCracken",
        "name": "Lloyd Tilghman Memorial",
        "type": "Confederate",
        "active": "Yes",
        "year_built": 1909,
        "city": "Paducah",
        "lat": 37.08193,
        "lng": -88.619362,
        "notes": "https://npgallery.nps.gov/AssetDetail/3282ee10-52f0-478a-ab4a-568ff3bffe4d"
    },
    {
        "county": "Mercer",
        "name": "Beriah Magoffin Monument",
        "type": "Other",
        "active": "Yes",
        "year_built": 1900,
        "city": "Harrodsburg",
        "lat": 37.768902,
        "lng": -84.839176,
        "notes": "https://npgallery.nps.gov/AssetDetail/2b5207de-0c51-41a0-be7c-25bdd5dbb778"
    },
    {
        "county": "Mercer",
        "name": "Confederate Monument in Harrodsburg",
        "type": "Confederate",
        "active": "Yes",
        "year_built": 1902,
        "city": "Harrodsburg",
        "lat": 37.769336,
        "lng": -84.841356,
        "notes": "https://npgallery.nps.gov/AssetDetail/0a8cfbc8-d2b0-4df9-85b5-569143cecd1f"
    },
    {
        "county": "Montgomery",
        "name": "Confederate Monument of Mt. Sterling",
        "type": "Confederate",
        "active": "Yes",
        "year_built": 1880,
        "city": "Mt. Sterling",
        "lat": 38.056855,
        "lng": -83.931241,
        "notes": "https://npgallery.nps.gov/AssetDetail/23071047-94bf-4bb3-8695-83acd9447011"
    },
    {
        "county": "Nelson",
        "name": "Confederate Monument of Bardstown",
        "type": "Confederate",
        "active": "Yes",
        "year_built": 1903,
        "city": "Bardstown",
        "lat": 37.824035,
        "lng": -85.460287,
        "notes": "https://npgallery.nps.gov/AssetDetail/6c7beb21-57f0-436d-a222-46d948cf3319"
    },
    {
        "county": "Oldham",
        "name": "Confederate Memorial in Pewee Valley",
        "type": "Confederate",
        "active": "Yes",
        "year_built": 1904,
        "city": "Pewee Valley",
        "lat": 38.30301,
        "lng": -85.47669,
        "notes": "https://npgallery.nps.gov/AssetDetail/c1df6d45-ad71-482c-ab77-f1c255aab9db"
    },
    {
        "county": "Pulaski",
        "name": "Battle of Dutton's Hill Monument",
        "type": "Confederate",
        "active": "Yes",
        "year_built": 1875,
        "city": "Somerset",
        "lat": 37.115164,
        "lng": -84.596606,
        "notes": "https://npgallery.nps.gov/AssetDetail/159d2de7-3cee-49ba-9889-69c57a4d551f"
    },
    {
        "county": "Pulaski",
        "name": "Confederate Mass Grave Monument in Somerset",
        "type": "Confederate",
        "active": "Yes",
        "year_built": 1910,
        "city": "Somerset",
        "lat": 37.055319,
        "lng": -84.73907,
        "notes": "https://npgallery.nps.gov/AssetDetail/680b65d6-ba6a-416b-ac74-25877452f60f"
    },
    {
        "county": "Pulaski",
        "name": "General Felix K. Zollicoffer Monument",
        "type": "Confederate",
        "active": "Yes",
        "year_built": 1910,
        "city": "Nancy",
        "lat": 37.05582,
        "lng": -84.739174,
        "notes": "https://npgallery.nps.gov/AssetDetail/7b0eacc9-b354-4f9f-a493-1d652cb6e2e5"
    },
    {
        "county": "Scott",
        "name": "Confederate Monument in Georgetown",
        "type": "Confederate",
        "active": "Yes",
        "year_built": 1888,
        "city": "Georgetown",
        "lat": 38.198211,
        "lng": -84.560199,
        "notes": "https://npgallery.nps.gov/AssetDetail/27c5340b-0c19-47f2-8d00-217b5b2ebe93"
    },
    {
        "county": "Taylor",
        "name": "Battle of Tebb's Bend Monument",
        "type": "Other",
        "active": "Yes",
        "year_built": 1872,
        "city": "Campbellsville",
        "lat": 37.230237,
        "lng": -85.347064,
        "notes": "https://npgallery.nps.gov/AssetDetail/8166d84c-9d88-4231-8bdd-3a11dc317f60"
    },
    {
        "county": "Trigg",
        "name": "Confederate Monument of Cadiz",
        "type": "Confederate",
        "active": "Yes",
        "year_built": 1913,
        "city": "Cadiz",
        "lat": 36.862186,
        "lng": -87.837144,
        "notes": "https://npgallery.nps.gov/AssetDetail/f5d3d13c-4a58-4876-9ef0-f977d16201bb"
    },
    {
        "county": "Union",
        "name": "Confederate Monument of Morganfield",
        "type": "Confederate",
        "active": "Yes",
        "year_built": 1870,
        "city": "Morganfield",
        "lat": 37.684565,
        "lng": -87.920843,
        "notes": "https://npgallery.nps.gov/AssetDetail/83d7c0e2-02db-457b-af05-33b1ba8d875d"
    },
    {
        "county": "Warren",
        "name": "Confederate Monument of Bowling Green",
        "type": "Confederate",
        "active": "Yes",
        "year_built": 1876,
        "city": "Bowling Green",
        "lat": 36.992079,
        "lng": -86.419404,
        "notes": "https://npgallery.nps.gov/AssetDetail/735a98e6-8cdb-4830-86a8-d002e48439ad"
    },
    {
        "county": "Warren",
        "name": "William F. Perry Monument",
        "type": "Confederate",
        "active": "Yes",
        "year_built": 1901,
        "city": "Bowling Green",
        "lat": 36.991491,
        "lng": -86.421415,
        "notes": "https://npgallery.nps.gov/AssetDetail/b028d9de-fce0-42fd-8472-c94191c0c8ec"
    },
    {
        "county": "Woodford",
        "name": "Confederate Monument in Versailles",
        "type": "Confederate",
        "active": "Yes",
        "year_built": 1877,
        "city": "Versailles",
        "lat": 38.049806,
        "lng": -84.729777,
        "notes": "https://npgallery.nps.gov/AssetDetail/6129da06-07cf-4a00-b4d3-5bf2050b14ed"
    },
    {
        "county": "Woodford",
        "name": "Martyrs Monument in Midway",
        "type": "Confederate",
        "active": "Yes",
        "year_built": 1890,
        "city": "Midway",
        "lat": 38.148432,
        "lng": -84.693261,
        "notes": "https://npgallery.nps.gov/AssetDetail/157a14e3-3c43-44ac-bf25-996f519396c2"
    }
]